{
  "query": "UPDATE island_guides SET latitude = '6.4167', longitude = '73.0333' WHERE name = 'Alifushi';\nUPDATE island_guides SET latitude = '6.9167', longitude = '73.1667' WHERE name = 'Baarah';\nUPDATE island_guides SET latitude = '5.2333', longitude = '72.9667' WHERE name = 'Baa';\nUPDATE island_guides SET latitude = '4.2667', longitude = '73.5' WHERE name = 'Bodufolhudhoo';\nUPDATE island_guides SET latitude = '5.0333', longitude = '73.1' WHERE name = 'Dharavandhoo';\nUPDATE island_guides SET latitude = '1.6667', longitude = '73.5' WHERE name = 'Dhigurah';\nUPDATE island_guides SET latitude = '4.4', longitude = '73.5' WHERE name = 'Dhiffushi';\nUPDATE island_guides SET latitude = '1.9667', longitude = '73.4' WHERE name = 'Dhiddhoo';\nUPDATE island_guides SET latitude = '5.1', longitude = '72.95' WHERE name = 'Eydhafushi';\nUPDATE island_guides SET latitude = '4.95', longitude = '72.95' WHERE name = 'Fehendhoo';\nUPDATE island_guides SET latitude = '4.2', longitude = '73.5' WHERE name = 'Feridhoo';\nUPDATE island_guides SET latitude = '6.8833', longitude = '73.23' WHERE name = 'Filladhoo';\nUPDATE island_guides SET latitude = '1.8333', longitude = '73.5' WHERE name = 'Fonadhoo';\nUPDATE island_guides SET latitude = '5.05', longitude = '72.9' WHERE name = 'Fulhadhoo';\nUPDATE island_guides SET latitude = '6.1667', longitude = '73.3' WHERE name = 'Funadhoo';\nUPDATE island_guides SET latitude = '0.5', longitude = '72.95' WHERE name = 'Fulidhoo';\nUPDATE island_guides SET latitude = '-0.6833', longitude = '73.1667' WHERE name = 'Gan';\nUPDATE island_guides SET latitude = '4.8667', longitude = '72.9833' WHERE name = 'Goidhoo';\nUPDATE island_guides SET latitude = '4.9', longitude = '72.95' WHERE name = 'Godhdhoo';\nUPDATE island_guides SET latitude = '6.7667', longitude = '73.1833' WHERE name = 'Hanimaadhoo';\nUPDATE island_guides SET latitude = '4.3', longitude = '73.5667' WHERE name = 'Himmafushi';\nUPDATE island_guides SET latitude = '-0.6', longitude = '73.0833' WHERE name = 'Hithadhoo';\nUPDATE island_guides SET latitude = '4.1667', longitude = '73.5' WHERE name = 'Hulhumalé';\nUPDATE island_guides SET latitude = '4.3333', longitude = '73.5833' WHERE name = 'Huraa';\nUPDATE island_guides SET latitude = '1.8667', longitude = '73.5' WHERE name = 'Kadhdhoo';\nUPDATE island_guides SET latitude = '4.95', longitude = '72.95' WHERE name = 'Kamadhoo';\nUPDATE island_guides SET latitude = '4.3', longitude = '73.5' WHERE name = 'Kandooma';\nUPDATE island_guides SET latitude = '5.3333', longitude = '73.4667' WHERE name = 'Komandoo';\nUPDATE island_guides SET latitude = '1.9667', longitude = '73.4' WHERE name = 'Kudahuvadhoo';\nUPDATE island_guides SET latitude = '5.3333', longitude = '73.4667' WHERE name = 'Kurendhoo';\nUPDATE island_guides SET latitude = '4.95', longitude = '72.95' WHERE name = 'Maalhos';\nUPDATE island_guides SET latitude = '1.7', longitude = '73.5' WHERE name = 'Maamigili';\nUPDATE island_guides SET latitude = '4.4167', longitude = '73.4667' WHERE name = 'Maafushi';\nUPDATE island_guides SET latitude = '1.9', longitude = '73.4' WHERE name = 'Magoodhoo';\nUPDATE island_guides SET latitude = '4.1667', longitude = '73.5' WHERE name = 'Malé';\nUPDATE island_guides SET latitude = '-0.6', longitude = '73.15' WHERE name = 'Maradhoo';\nUPDATE island_guides SET latitude = '4.2', longitude = '73.5' WHERE name = 'Mathiveri';\nUPDATE island_guides SET latitude = '3.8833', longitude = '73.6' WHERE name = 'Medhufushi';\nUPDATE island_guides SET latitude = '1.9667', longitude = '73.4' WHERE name = 'Mulah';\nUPDATE island_guides SET latitude = '1.8', longitude = '73.5' WHERE name = 'Mundoo';\nUPDATE island_guides SET latitude = '5.3333', longitude = '73.4667' WHERE name = 'Naifaru';\nUPDATE island_guides SET latitude = '1.9', longitude = '73.4' WHERE name = 'Nilandhoo';\nUPDATE island_guides SET latitude = '1.65', longitude = '73.5' WHERE name = 'Omadhoo';\nUPDATE island_guides SET latitude = '4.2667', longitude = '73.5' WHERE name = 'Rasdhoo';\nUPDATE island_guides SET latitude = '4.2333', longitude = '73.5' WHERE name = 'Thoddoo';\nUPDATE island_guides SET latitude = '0.3', longitude = '73' WHERE name = 'Thinadhoo';\nUPDATE island_guides SET latitude = '4.3667', longitude = '73.65' WHERE name = 'Thulusdhoo';\nUPDATE island_guides SET latitude = '5.1', longitude = '72.95' WHERE name = 'Thulhaadhoo';\nUPDATE island_guides SET latitude = '4.2167', longitude = '73.5' WHERE name = 'Ukulhas';\nUPDATE island_guides SET latitude = '6.9', longitude = '73.15' WHERE name = 'Ungoofaaru';\nUPDATE island_guides SET latitude = '6.85', longitude = '73.1' WHERE name = 'Utheemu';\nUPDATE island_guides SET latitude = '4.3', longitude = '73.5' WHERE name = 'Vaadhoo';\nUPDATE island_guides SET latitude = '6.9', longitude = '73.15' WHERE name = 'Velidhoo';\nUPDATE island_guides SET latitude = '1.7', longitude = '73.5' WHERE name = 'Veligandu'",
  "command": "mysql --batch --raw --column-names --default-character-set=utf8mb4 --host gateway03.us-east-1.prod.aws.tidbcloud.com --port 4000 --user 3FFv3TtDUeNbYDM.root --database JUCCYykxYWxAcNny3wop55 --execute UPDATE island_guides SET latitude = '6.4167', longitude = '73.0333' WHERE name = 'Alifushi';\nUPDATE island_guides SET latitude = '6.9167', longitude = '73.1667' WHERE name = 'Baarah';\nUPDATE island_guides SET latitude = '5.2333', longitude = '72.9667' WHERE name = 'Baa';\nUPDATE island_guides SET latitude = '4.2667', longitude = '73.5' WHERE name = 'Bodufolhudhoo';\nUPDATE island_guides SET latitude = '5.0333', longitude = '73.1' WHERE name = 'Dharavandhoo';\nUPDATE island_guides SET latitude = '1.6667', longitude = '73.5' WHERE name = 'Dhigurah';\nUPDATE island_guides SET latitude = '4.4', longitude = '73.5' WHERE name = 'Dhiffushi';\nUPDATE island_guides SET latitude = '1.9667', longitude = '73.4' WHERE name = 'Dhiddhoo';\nUPDATE island_guides SET latitude = '5.1', longitude = '72.95' WHERE name = 'Eydhafushi';\nUPDATE island_guides SET latitude = '4.95', longitude = '72.95' WHERE name = 'Fehendhoo';\nUPDATE island_guides SET latitude = '4.2', longitude = '73.5' WHERE name = 'Feridhoo';\nUPDATE island_guides SET latitude = '6.8833', longitude = '73.23' WHERE name = 'Filladhoo';\nUPDATE island_guides SET latitude = '1.8333', longitude = '73.5' WHERE name = 'Fonadhoo';\nUPDATE island_guides SET latitude = '5.05', longitude = '72.9' WHERE name = 'Fulhadhoo';\nUPDATE island_guides SET latitude = '6.1667', longitude = '73.3' WHERE name = 'Funadhoo';\nUPDATE island_guides SET latitude = '0.5', longitude = '72.95' WHERE name = 'Fulidhoo';\nUPDATE island_guides SET latitude = '-0.6833', longitude = '73.1667' WHERE name = 'Gan';\nUPDATE island_guides SET latitude = '4.8667', longitude = '72.9833' WHERE name = 'Goidhoo';\nUPDATE island_guides SET latitude = '4.9', longitude = '72.95' WHERE name = 'Godhdhoo';\nUPDATE island_guides SET latitude = '6.7667', longitude = '73.1833' WHERE name = 'Hanimaadhoo';\nUPDATE island_guides SET latitude = '4.3', longitude = '73.5667' WHERE name = 'Himmafushi';\nUPDATE island_guides SET latitude = '-0.6', longitude = '73.0833' WHERE name = 'Hithadhoo';\nUPDATE island_guides SET latitude = '4.1667', longitude = '73.5' WHERE name = 'Hulhumalé';\nUPDATE island_guides SET latitude = '4.3333', longitude = '73.5833' WHERE name = 'Huraa';\nUPDATE island_guides SET latitude = '1.8667', longitude = '73.5' WHERE name = 'Kadhdhoo';\nUPDATE island_guides SET latitude = '4.95', longitude = '72.95' WHERE name = 'Kamadhoo';\nUPDATE island_guides SET latitude = '4.3', longitude = '73.5' WHERE name = 'Kandooma';\nUPDATE island_guides SET latitude = '5.3333', longitude = '73.4667' WHERE name = 'Komandoo';\nUPDATE island_guides SET latitude = '1.9667', longitude = '73.4' WHERE name = 'Kudahuvadhoo';\nUPDATE island_guides SET latitude = '5.3333', longitude = '73.4667' WHERE name = 'Kurendhoo';\nUPDATE island_guides SET latitude = '4.95', longitude = '72.95' WHERE name = 'Maalhos';\nUPDATE island_guides SET latitude = '1.7', longitude = '73.5' WHERE name = 'Maamigili';\nUPDATE island_guides SET latitude = '4.4167', longitude = '73.4667' WHERE name = 'Maafushi';\nUPDATE island_guides SET latitude = '1.9', longitude = '73.4' WHERE name = 'Magoodhoo';\nUPDATE island_guides SET latitude = '4.1667', longitude = '73.5' WHERE name = 'Malé';\nUPDATE island_guides SET latitude = '-0.6', longitude = '73.15' WHERE name = 'Maradhoo';\nUPDATE island_guides SET latitude = '4.2', longitude = '73.5' WHERE name = 'Mathiveri';\nUPDATE island_guides SET latitude = '3.8833', longitude = '73.6' WHERE name = 'Medhufushi';\nUPDATE island_guides SET latitude = '1.9667', longitude = '73.4' WHERE name = 'Mulah';\nUPDATE island_guides SET latitude = '1.8', longitude = '73.5' WHERE name = 'Mundoo';\nUPDATE island_guides SET latitude = '5.3333', longitude = '73.4667' WHERE name = 'Naifaru';\nUPDATE island_guides SET latitude = '1.9', longitude = '73.4' WHERE name = 'Nilandhoo';\nUPDATE island_guides SET latitude = '1.65', longitude = '73.5' WHERE name = 'Omadhoo';\nUPDATE island_guides SET latitude = '4.2667', longitude = '73.5' WHERE name = 'Rasdhoo';\nUPDATE island_guides SET latitude = '4.2333', longitude = '73.5' WHERE name = 'Thoddoo';\nUPDATE island_guides SET latitude = '0.3', longitude = '73' WHERE name = 'Thinadhoo';\nUPDATE island_guides SET latitude = '4.3667', longitude = '73.65' WHERE name = 'Thulusdhoo';\nUPDATE island_guides SET latitude = '5.1', longitude = '72.95' WHERE name = 'Thulhaadhoo';\nUPDATE island_guides SET latitude = '4.2167', longitude = '73.5' WHERE name = 'Ukulhas';\nUPDATE island_guides SET latitude = '6.9', longitude = '73.15' WHERE name = 'Ungoofaaru';\nUPDATE island_guides SET latitude = '6.85', longitude = '73.1' WHERE name = 'Utheemu';\nUPDATE island_guides SET latitude = '4.3', longitude = '73.5' WHERE name = 'Vaadhoo';\nUPDATE island_guides SET latitude = '6.9', longitude = '73.15' WHERE name = 'Velidhoo';\nUPDATE island_guides SET latitude = '1.7', longitude = '73.5' WHERE name = 'Veligandu'",
  "rows": [],
  "messages": [],
  "stdout": "",
  "stderr": "",
  "execution_time_ms": 3281
}