{
  "query": "UPDATE places SET latitude = 4.2667, longitude = 73.5167, difficulty = 'intermediate', depth = '15-30m' WHERE id = 4 AND name = 'HP Reef';\nUPDATE places SET latitude = 4.2500, longitude = 73.5000, difficulty = 'intermediate', depth = '20-35m' WHERE id = 9 AND name = 'Maaya Thila';\nUPDATE places SET latitude = 3.0167, longitude = 72.9167, difficulty = 'advanced', depth = '25-40m' WHERE id = 20 AND name = 'Felidhoo Kandu';\nUPDATE places SET latitude = 3.9500, longitude = 73.4833, difficulty = 'advanced', depth = '30-45m' WHERE id = 26 AND name = 'Kandooma Thila';\nUPDATE places SET latitude = 3.1333, longitude = 72.9500, difficulty = 'intermediate', depth = '18-32m' WHERE id = 42 AND name = 'Fulidhoo Kandu';\nUPDATE places SET latitude = 5.2500, longitude = 73.1667, difficulty = 'beginner', depth = '5-15m' WHERE id = 66 AND name = 'Thoddoo House Reef';\nUPDATE places SET latitude = 5.3167, longitude = 73.1833, difficulty = 'beginner', depth = '8-18m' WHERE id = 69 AND name = 'Ukulhas House Reef';\nUPDATE places SET latitude = 3.8667, longitude = 73.5333, difficulty = 'beginner', depth = '3-12m' WHERE id = 100 AND name = 'Banana Reef';\nUPDATE places SET latitude = 0.6833, longitude = 73.1667, difficulty = 'intermediate', depth = '12-25m' WHERE id = 104 AND name = 'Dhigurah House Reef';\nUPDATE places SET latitude = 3.0500, longitude = 72.9333, difficulty = 'advanced', depth = '28-42m' WHERE id = 107 AND name = 'Fotteyo Kandu';",
  "command": "mysql --batch --raw --column-names --default-character-set=utf8mb4 --host gateway03.us-east-1.prod.aws.tidbcloud.com --port 4000 --user 3FFv3TtDUeNbYDM.root --database JUCCYykxYWxAcNny3wop55 --execute UPDATE places SET latitude = 4.2667, longitude = 73.5167, difficulty = 'intermediate', depth = '15-30m' WHERE id = 4 AND name = 'HP Reef';\nUPDATE places SET latitude = 4.2500, longitude = 73.5000, difficulty = 'intermediate', depth = '20-35m' WHERE id = 9 AND name = 'Maaya Thila';\nUPDATE places SET latitude = 3.0167, longitude = 72.9167, difficulty = 'advanced', depth = '25-40m' WHERE id = 20 AND name = 'Felidhoo Kandu';\nUPDATE places SET latitude = 3.9500, longitude = 73.4833, difficulty = 'advanced', depth = '30-45m' WHERE id = 26 AND name = 'Kandooma Thila';\nUPDATE places SET latitude = 3.1333, longitude = 72.9500, difficulty = 'intermediate', depth = '18-32m' WHERE id = 42 AND name = 'Fulidhoo Kandu';\nUPDATE places SET latitude = 5.2500, longitude = 73.1667, difficulty = 'beginner', depth = '5-15m' WHERE id = 66 AND name = 'Thoddoo House Reef';\nUPDATE places SET latitude = 5.3167, longitude = 73.1833, difficulty = 'beginner', depth = '8-18m' WHERE id = 69 AND name = 'Ukulhas House Reef';\nUPDATE places SET latitude = 3.8667, longitude = 73.5333, difficulty = 'beginner', depth = '3-12m' WHERE id = 100 AND name = 'Banana Reef';\nUPDATE places SET latitude = 0.6833, longitude = 73.1667, difficulty = 'intermediate', depth = '12-25m' WHERE id = 104 AND name = 'Dhigurah House Reef';\nUPDATE places SET latitude = 3.0500, longitude = 72.9333, difficulty = 'advanced', depth = '28-42m' WHERE id = 107 AND name = 'Fotteyo Kandu';",
  "rows": [],
  "messages": [],
  "stdout": "",
  "stderr": "",
  "execution_time_ms": 885
}