{
  "query": "SELECT id, name, slug, latitude, longitude FROM island_guides WHERE contentType = 'island' AND published = 1 ORDER BY id;",
  "command": "mysql --batch --raw --column-names --default-character-set=utf8mb4 --host gateway03.us-east-1.prod.aws.tidbcloud.com --port 4000 --user 3FFv3TtDUeNbYDM.root --database JUCCYykxYWxAcNny3wop55 --execute SELECT id, name, slug, latitude, longitude FROM island_guides WHERE contentType = 'island' AND published = 1 ORDER BY id;",
  "rows": [
    {
      "id": "60001",
      "name": "Malé",
      "slug": "male",
      "latitude": "NULL",
      "longitude": "NULL"
    },
    {
      "id": "60002",
      "name": "Maafushi",
      "slug": "maafushi",
      "latitude": "NULL",
      "longitude": "NULL"
    },
    {
      "id": "60003",
      "name": "Thulusdhoo",
      "slug": "thulusdhoo",
      "latitude": "NULL",
      "longitude": "NULL"
    },
    {
      "id": "60004",
      "name": "Dhiffushi",
      "slug": "dhiffushi",
      "latitude": "NULL",
      "longitude": "NULL"
    },
    {
      "id": "60005",
      "name": "Rasdhoo",
      "slug": "rasdhoo",
      "latitude": "NULL",
      "longitude": "NULL"
    },
    {
      "id": "60006",
      "name": "Thoddoo",
      "slug": "thoddoo",
      "latitude": "NULL",
      "longitude": "NULL"
    },
    {
      "id": "60007",
      "name": "Ukulhas",
      "slug": "ukulhas",
      "latitude": "NULL",
      "longitude": "NULL"
    },
    {
      "id": "60008",
      "name": "Dhigurah",
      "slug": "dhigurah",
      "latitude": "NULL",
      "longitude": "NULL"
    },
    {
      "id": "60009",
      "name": "Veligandu",
      "slug": "veligandu",
      "latitude": "NULL",
      "longitude": "NULL"
    },
    {
      "id": "60010",
      "name": "Fulidhoo",
      "slug": "fulidhoo",
      "latitude": "NULL",
      "longitude": "NULL"
    },
    {
      "id": "60011",
      "name": "Felidhoo",
      "slug": "felidhoo",
      "latitude": "NULL",
      "longitude": "NULL"
    },
    {
      "id": "60012",
      "name": "Naifaru",
      "slug": "naifaru",
      "latitude": "NULL",
      "longitude": "NULL"
    },
    {
      "id": "60013",
      "name": "Hinnavaru",
      "slug": "hinnavaru",
      "latitude": "NULL",
      "longitude": "NULL"
    },
    {
      "id": "60014",
      "name": "Dharavandhoo",
      "slug": "dharavandhoo",
      "latitude": "NULL",
      "longitude": "NULL"
    },
    {
      "id": "60015",
      "name": "Guraidhoo",
      "slug": "guraidhoo",
      "latitude": "NULL",
      "longitude": "NULL"
    },
    {
      "id": "60016",
      "name": "Kudahuvadhoo",
      "slug": "kudahuvadhoo",
      "latitude": "NULL",
      "longitude": "NULL"
    },
    {
      "id": "60017",
      "name": "Fodhdhoo",
      "slug": "fodhdhoo",
      "latitude": "NULL",
      "longitude": "NULL"
    },
    {
      "id": "60018",
      "name": "Muli",
      "slug": "muli",
      "latitude": "NULL",
      "longitude": "NULL"
    },
    {
      "id": "60019",
      "name": "Kolhufushi",
      "slug": "kolhufushi",
      "latitude": "NULL",
      "longitude": "NULL"
    },
    {
      "id": "60020",
      "name": "Gan",
      "slug": "gan",
      "latitude": "NULL",
      "longitude": "NULL"
    },
    {
      "id": "60021",
      "name": "Feidhoo",
      "slug": "feidhoo",
      "latitude": "NULL",
      "longitude": "NULL"
    },
    {
      "id": "60022",
      "name": "Maradhoo",
      "slug": "maradhoo",
      "latitude": "NULL",
      "longitude": "NULL"
    },
    {
      "id": "60023",
      "name": "Hithadhoo",
      "slug": "hithadhoo",
      "latitude": "NULL",
      "longitude": "NULL"
    },
    {
      "id": "60024",
      "name": "Veymandoo",
      "slug": "veymandoo",
      "latitude": "NULL",
      "longitude": "NULL"
    },
    {
      "id": "60025",
      "name": "Madifushi",
      "slug": "madifushi",
      "latitude": "NULL",
      "longitude": "NULL"
    },
    {
      "id": "60026",
      "name": "Inguraidhoo",
      "slug": "inguraidhoo",
      "latitude": "NULL",
      "longitude": "NULL"
    },
    {
      "id": "60027",
      "name": "Alifushi",
      "slug": "alifushi",
      "latitude": "NULL",
      "longitude": "NULL"
    },
    {
      "id": "60028",
      "name": "Ungoofaaru",
      "slug": "ungoofaaru",
      "latitude": "NULL",
      "longitude": "NULL"
    },
    {
      "id": "90001",
      "name": "Fuvahmulah Island",
      "slug": "fuvahmulah-island",
      "latitude": "0.2833",
      "longitude": "73.4167"
    },
    {
      "id": "90002",
      "name": "Hulhumalé",
      "slug": "hulhumale",
      "latitude": "4.1667",
      "longitude": "73.5167"
    },
    {
      "id": "90004",
      "name": "Maamigili",
      "slug": "maamigili",
      "latitude": "3.8667",
      "longitude": "72.7833"
    },
    {
      "id": "90005",
      "name": "Kandooma Thila",
      "slug": "kandooma-thila",
      "latitude": "4.0833",
      "longitude": "73.4667"
    },
    {
      "id": "90006",
      "name": "Banana Reef",
      "slug": "banana-reef",
      "latitude": "4.1667",
      "longitude": "73.5167"
    },
    {
      "id": "90007",
      "name": "Maaya Thila",
      "slug": "maaya-thila",
      "latitude": "3.8667",
      "longitude": "72.7833"
    },
    {
      "id": "90008",
      "name": "HP Reef",
      "slug": "hp-reef",
      "latitude": "5.2167",
      "longitude": "73.0167"
    },
    {
      "id": "90009",
      "name": "Fotteyo Kandu",
      "slug": "fotteyo-kandu",
      "latitude": "5.0833",
      "longitude": "72.9167"
    },
    {
      "id": "90010",
      "name": "Veligandu Reef",
      "slug": "veligandu-reef",
      "latitude": "3.9167",
      "longitude": "72.8333"
    },
    {
      "id": "90011",
      "name": "Dhigurah House Reef",
      "slug": "dhigurah-house-reef",
      "latitude": "3.8833",
      "longitude": "72.8667"
    },
    {
      "id": "90012",
      "name": "Fulidhoo Kandu",
      "slug": "fulidhoo-kandu",
      "latitude": "3.8167",
      "longitude": "72.8167"
    },
    {
      "id": "90013",
      "name": "Felidhoo Kandu",
      "slug": "felidhoo-kandu",
      "latitude": "3.7833",
      "longitude": "72.8333"
    },
    {
      "id": "90014",
      "name": "Rasdhoo Madivaru",
      "slug": "rasdhoo-madivaru",
      "latitude": "4.2667",
      "longitude": "73.4167"
    },
    {
      "id": "90015",
      "name": "Thoddoo House Reef",
      "slug": "thoddoo-house-reef",
      "latitude": "4.3333",
      "longitude": "73.5167"
    },
    {
      "id": "90016",
      "name": "Ukulhas House Reef",
      "slug": "ukulhas-house-reef",
      "latitude": "4.2667",
      "longitude": "73.3667"
    },
    {
      "id": "90017",
      "name": "Naifaru Kandu",
      "slug": "naifaru-kandu",
      "latitude": "5.3333",
      "longitude": "73.1667"
    },
    {
      "id": "120001",
      "name": "Fuvahmulah Tiger Shark",
      "slug": "fuvahmulah-tiger-shark",
      "latitude": "0.2667",
      "longitude": "73.3833"
    },
    {
      "id": "120002",
      "name": "Baarah Island",
      "slug": "baarah-island",
      "latitude": "6.6667",
      "longitude": "73.2333"
    },
    {
      "id": "120003",
      "name": "Dhiddhoo Island",
      "slug": "dhiddhoo-island",
      "latitude": "6.6000",
      "longitude": "73.2667"
    },
    {
      "id": "120004",
      "name": "Hoarafushi Island",
      "slug": "hoarafushi-island",
      "latitude": "6.5667",
      "longitude": "73.3333"
    },
    {
      "id": "120005",
      "name": "Ihavandhoo Island",
      "slug": "ihavandhoo-island",
      "latitude": "6.5333",
      "longitude": "73.3667"
    },
    {
      "id": "120006",
      "name": "Kelaa Island",
      "slug": "kelaa-island",
      "latitude": "6.7000",
      "longitude": "73.2500"
    },
    {
      "id": "120007",
      "name": "Maarandhoo Island",
      "slug": "maarandhoo-island",
      "latitude": "6.6333",
      "longitude": "73.2000"
    },
    {
      "id": "120008",
      "name": "Mulhadhoo Island",
      "slug": "mulhadhoo-island",
      "latitude": "6.7333",
      "longitude": "73.2667"
    },
    {
      "id": "120009",
      "name": "Muraidhoo Island",
      "slug": "muraidhoo-island",
      "latitude": "6.7667",
      "longitude": "73.2333"
    },
    {
      "id": "120010",
      "name": "Thakandhoo Island",
      "slug": "thakandhoo-island",
      "latitude": "6.5000",
      "longitude": "73.4000"
    },
    {
      "id": "120011",
      "name": "Thuraakunu Island",
      "slug": "thuraakunu-island",
      "latitude": "6.4667",
      "longitude": "73.3833"
    },
    {
      "id": "120012",
      "name": "Uligamu Island",
      "slug": "uligamu-island",
      "latitude": "6.7500",
      "longitude": "73.2167"
    },
    {
      "id": "120013",
      "name": "Utheemu Island",
      "slug": "utheemu-island",
      "latitude": "6.5833",
      "longitude": "73.3167"
    },
    {
      "id": "120014",
      "name": "Vashafaru Island",
      "slug": "vashafaru-island",
      "latitude": "6.6500",
      "longitude": "73.1833"
    },
    {
      "id": "120015",
      "name": "Filladhoo Island",
      "slug": "filladhoo-island",
      "latitude": "6.7833",
      "longitude": "73.2000"
    },
    {
      "id": "120016",
      "name": "Finey Island",
      "slug": "finey-island",
      "latitude": "6.9500",
      "longitude": "73.3667"
    },
    {
      "id": "120017",
      "name": "Hirimaradhoo Island",
      "slug": "hirimaradhoo-island",
      "latitude": "6.9000",
      "longitude": "73.4500"
    },
    {
      "id": "120018",
      "name": "Kumundhoo Island",
      "slug": "kumundhoo-island",
      "latitude": "6.9333",
      "longitude": "73.3833"
    },
    {
      "id": "120019",
      "name": "Kurinbi Island",
      "slug": "kurinbi-island",
      "latitude": "6.9667",
      "longitude": "73.3500"
    },
    {
      "id": "120020",
      "name": "Makunudhoo Island",
      "slug": "makunudhoo-island",
      "latitude": "6.8667",
      "longitude": "73.4167"
    },
    {
      "id": "120021",
      "name": "Naivaadhoo Island",
      "slug": "naivaadhoo-island",
      "latitude": "6.9833",
      "longitude": "73.3667"
    },
    {
      "id": "120022",
      "name": "Nellaidhoo Island",
      "slug": "nellaidhoo-island",
      "latitude": "6.8333",
      "longitude": "73.4833"
    },
    {
      "id": "120023",
      "name": "Neykurendhoo Island",
      "slug": "neykurendhoo-island",
      "latitude": "6.8000",
      "longitude": "73.5000"
    },
    {
      "id": "120024",
      "name": "Nolhivaramu Island",
      "slug": "nolhivaramu-island",
      "latitude": "6.8500",
      "longitude": "73.4333"
    },
    {
      "id": "120025",
      "name": "Nolhivaranfaru Island",
      "slug": "nolhivaranfaru-island",
      "latitude": "6.8167",
      "longitude": "73.4667"
    },
    {
      "id": "120026",
      "name": "Vaikaradhoo Island",
      "slug": "vaikaradhoo-island",
      "latitude": "6.9167",
      "longitude": "73.4000"
    },
    {
      "id": "120027",
      "name": "Funadhoo Island",
      "slug": "funadhoo-island",
      "latitude": "6.0333",
      "longitude": "72.9167"
    },
    {
      "id": "120028",
      "name": "Lhaimagu Island",
      "slug": "lhaimagu-island",
      "latitude": "6.0667",
      "longitude": "72.8833"
    },
    {
      "id": "120029",
      "name": "Milandhoo Island",
      "slug": "milandhoo-island",
      "latitude": "6.0000",
      "longitude": "72.9500"
    },
    {
      "id": "120030",
      "name": "Noomaraa Island",
      "slug": "noomaraa-island",
      "latitude": "5.9667",
      "longitude": "72.9667"
    },
    {
      "id": "120031",
      "name": "Lhosfushi Island",
      "slug": "lhosfushi-island",
      "latitude": "5.6667",
      "longitude": "73.3667"
    },
    {
      "id": "120032",
      "name": "Meedhoo Island",
      "slug": "meedhoo-island-noonu",
      "latitude": "5.6333",
      "longitude": "73.3333"
    },
    {
      "id": "120033",
      "name": "Velidhoo Island",
      "slug": "velidhoo-island-noonu",
      "latitude": "5.6000",
      "longitude": "73.3000"
    },
    {
      "id": "120034",
      "name": "Alifushi Island",
      "slug": "alifushi-island",
      "latitude": "5.3333",
      "longitude": "73.1667"
    },
    {
      "id": "120035",
      "name": "Dhuvaafaru Island",
      "slug": "dhuvaafaru-island",
      "latitude": "5.3667",
      "longitude": "73.1333"
    },
    {
      "id": "120036",
      "name": "Innamaa Island",
      "slug": "innamaa-island",
      "latitude": "5.3000",
      "longitude": "73.2000"
    },
    {
      "id": "120037",
      "name": "Ungoofaaru Island",
      "slug": "ungoofaaru-island",
      "latitude": "5.2667",
      "longitude": "73.2333"
    },
    {
      "id": "120038",
      "name": "Dhonfanu Island",
      "slug": "dhonfanu-island",
      "latitude": "5.1667",
      "longitude": "73.0333"
    },
    {
      "id": "120039",
      "name": "Eydhafushi Island",
      "slug": "eydhafushi-island",
      "latitude": "5.1333",
      "longitude": "73.0667"
    },
    {
      "id": "120040",
      "name": "Fulhadhoo Island",
      "slug": "fulhadhoo-island",
      "latitude": "5.0333",
      "longitude": "73.1667"
    },
    {
      "id": "120041",
      "name": "Godhdhoo Island",
      "slug": "godhdhoo-island",
      "latitude": "5.1000",
      "longitude": "73.0000"
    },
    {
      "id": "120042",
      "name": "Kendhoo Island",
      "slug": "kendhoo-island",
      "latitude": "5.0000",
      "longitude": "73.2000"
    },
    {
      "id": "120043",
      "name": "Villingili Island",
      "slug": "villingili-island-baa",
      "latitude": "5.1500",
      "longitude": "73.0500"
    },
    {
      "id": "120044",
      "name": "Hinnavaru Island",
      "slug": "hinnavaru-island",
      "latitude": "5.3667",
      "longitude": "73.3667"
    },
    {
      "id": "120045",
      "name": "Kurendhoo Island",
      "slug": "kurendhoo-island",
      "latitude": "5.3333",
      "longitude": "73.4000"
    },
    {
      "id": "120046",
      "name": "Naifaru Island",
      "slug": "naifaru-island",
      "latitude": "5.3667",
      "longitude": "73.3667"
    },
    {
      "id": "120047",
      "name": "Olhuvelifushi Island",
      "slug": "olhuvelifushi-island",
      "latitude": "5.2667",
      "longitude": "73.4333"
    },
    {
      "id": "120048",
      "name": "Dhiffushi Island",
      "slug": "dhiffushi-island",
      "latitude": "4.2667",
      "longitude": "73.5167"
    },
    {
      "id": "120049",
      "name": "Gaafaru Island",
      "slug": "gaafaru-island",
      "latitude": "4.2833",
      "longitude": "73.5333"
    },
    {
      "id": "120050",
      "name": "Gulhi Island",
      "slug": "gulhi-island",
      "latitude": "4.2500",
      "longitude": "73.5000"
    },
    {
      "id": "120051",
      "name": "Guraidhoo Island",
      "slug": "guraidhoo-island",
      "latitude": "4.2333",
      "longitude": "73.4833"
    },
    {
      "id": "120052",
      "name": "Himmafushi Island",
      "slug": "himmafushi-island",
      "latitude": "4.2167",
      "longitude": "73.5167"
    },
    {
      "id": "120053",
      "name": "Huraa Island",
      "slug": "huraa-island",
      "latitude": "4.2000",
      "longitude": "73.5333"
    },
    {
      "id": "120054",
      "name": "Kaashidhoo Island",
      "slug": "kaashidhoo-island",
      "latitude": "4.2833",
      "longitude": "73.4667"
    },
    {
      "id": "120055",
      "name": "Bodufolhudhoo Island",
      "slug": "bodufolhudhoo-island",
      "latitude": "4.3333",
      "longitude": "73.5333"
    },
    {
      "id": "120056",
      "name": "Feridhoo Island",
      "slug": "feridhoo-island",
      "latitude": "4.3667",
      "longitude": "73.5500"
    },
    {
      "id": "120057",
      "name": "Himandhoo Island",
      "slug": "himandhoo-island",
      "latitude": "4.3500",
      "longitude": "73.5667"
    },
    {
      "id": "120058",
      "name": "Maalhos Island",
      "slug": "maalhos-island",
      "latitude": "4.3333",
      "longitude": "73.5833"
    },
    {
      "id": "120059",
      "name": "Mathiveri Island",
      "slug": "mathiveri-island",
      "latitude": "4.3167",
      "longitude": "73.5500"
    },
    {
      "id": "120060",
      "name": "Thoddoo Island",
      "slug": "thoddoo-island",
      "latitude": "4.3833",
      "longitude": "73.5667"
    },
    {
      "id": "120061",
      "name": "Dhigurah Island",
      "slug": "dhigurah-island",
      "latitude": "4.2167",
      "longitude": "73.5167"
    },
    {
      "id": "120062",
      "name": "Felidhoo Island",
      "slug": "felidhoo-island-vaavu",
      "latitude": "3.8833",
      "longitude": "72.9333"
    },
    {
      "id": "120063",
      "name": "Fulidhoo Island",
      "slug": "fulidhoo-island",
      "latitude": "3.8667",
      "longitude": "72.9500"
    },
    {
      "id": "120064",
      "name": "Keyodhoo Island",
      "slug": "keyodhoo-island",
      "latitude": "3.8500",
      "longitude": "72.9667"
    },
    {
      "id": "120065",
      "name": "Rakeedhoo Island",
      "slug": "rakeedhoo-island",
      "latitude": "3.8333",
      "longitude": "72.9833"
    },
    {
      "id": "120066",
      "name": "Thinadhoo Island",
      "slug": "thinadhoo-island-vaavu",
      "latitude": "3.8167",
      "longitude": "73.0000"
    },
    {
      "id": "120067",
      "name": "Dhiggaru Island",
      "slug": "dhiggaru-island",
      "latitude": "3.7333",
      "longitude": "72.8333"
    },
    {
      "id": "120068",
      "name": "Kolhufushi Island",
      "slug": "kolhufushi-island",
      "latitude": "3.7000",
      "longitude": "72.8667"
    },
    {
      "id": "120069",
      "name": "Maduvvaree Island",
      "slug": "maduvvaree-island",
      "latitude": "3.6667",
      "longitude": "72.9000"
    },
    {
      "id": "120070",
      "name": "Mulah Island",
      "slug": "mulah-island",
      "latitude": "3.6333",
      "longitude": "72.9333"
    },
    {
      "id": "120071",
      "name": "Muli Island",
      "slug": "muli-island",
      "latitude": "3.6000",
      "longitude": "72.9667"
    },
    {
      "id": "120072",
      "name": "Naalaafushi Island",
      "slug": "naalaafushi-island",
      "latitude": "3.5667",
      "longitude": "73.0000"
    },
    {
      "id": "120073",
      "name": "Raimmandhoo Island",
      "slug": "raimmandhoo-island",
      "latitude": "3.5333",
      "longitude": "73.0333"
    },
    {
      "id": "120074",
      "name": "Veyvah Island",
      "slug": "veyvah-island",
      "latitude": "3.5000",
      "longitude": "73.0667"
    },
    {
      "id": "120075",
      "name": "Bileddhoo Island",
      "slug": "bileddhoo-island",
      "latitude": "3.4667",
      "longitude": "72.8000"
    },
    {
      "id": "120076",
      "name": "Dharanboodhoo Island",
      "slug": "dharanboodhoo-island",
      "latitude": "3.4333",
      "longitude": "72.8333"
    },
    {
      "id": "120077",
      "name": "Feeali Island",
      "slug": "feeali-island",
      "latitude": "3.4000",
      "longitude": "72.8667"
    },
    {
      "id": "120078",
      "name": "Magoodhoo Island",
      "slug": "magoodhoo-island",
      "latitude": "3.3667",
      "longitude": "72.9000"
    },
    {
      "id": "120079",
      "name": "Nilandhoo Island",
      "slug": "nilandhoo-island-faafu",
      "latitude": "3.3333",
      "longitude": "72.9333"
    },
    {
      "id": "120080",
      "name": "Bandidhoo Island",
      "slug": "bandidhoo-island",
      "latitude": "3.3000",
      "longitude": "72.8000"
    },
    {
      "id": "120081",
      "name": "Hulhudheli Island",
      "slug": "hulhudheli-island",
      "latitude": "3.2667",
      "longitude": "72.8333"
    },
    {
      "id": "120082",
      "name": "Kudahuvadhoo Island",
      "slug": "kudahuvadhoo-island",
      "latitude": "3.2333",
      "longitude": "72.8667"
    },
    {
      "id": "120083",
      "name": "Maaenboodhoo Island",
      "slug": "maaenboodhoo-island",
      "latitude": "3.2000",
      "longitude": "72.9000"
    },
    {
      "id": "120084",
      "name": "Meedhoo Island",
      "slug": "meedhoo-island-dhaalu",
      "latitude": "3.1667",
      "longitude": "72.9333"
    },
    {
      "id": "120085",
      "name": "Rinbudhoo Island",
      "slug": "rinbudhoo-island",
      "latitude": "3.1333",
      "longitude": "72.9667"
    },
    {
      "id": "120086",
      "name": "Burunee Island",
      "slug": "burunee-island",
      "latitude": "3.1000",
      "longitude": "72.8000"
    },
    {
      "id": "120087",
      "name": "Dhiyamigili Island",
      "slug": "dhiyamigili-island",
      "latitude": "3.0667",
      "longitude": "72.8333"
    },
    {
      "id": "120088",
      "name": "Gemendhoo Island",
      "slug": "gemendhoo-island",
      "latitude": "3.0333",
      "longitude": "72.8667"
    },
    {
      "id": "120089",
      "name": "Veymandoo Island",
      "slug": "veymandoo-island",
      "latitude": "2.9667",
      "longitude": "72.9333"
    },
    {
      "id": "120090",
      "name": "Isdhoo Island",
      "slug": "isdhoo-island",
      "latitude": "0.6000",
      "longitude": "73.1333"
    },
    {
      "id": "120091",
      "name": "Kalaidhoo Island",
      "slug": "kalaidhoo-island",
      "latitude": "0.5667",
      "longitude": "73.1000"
    },
    {
      "id": "120092",
      "name": "Kadhoo Island",
      "slug": "kadhoo-island",
      "latitude": "0.5333",
      "longitude": "73.0667"
    },
    {
      "id": "120093",
      "name": "Maavah Island",
      "slug": "maavah-island",
      "latitude": "0.5000",
      "longitude": "73.0333"
    },
    {
      "id": "120094",
      "name": "Hithadhoo Island",
      "slug": "hithadhoo-island",
      "latitude": "0.5833",
      "longitude": "73.4833"
    },
    {
      "id": "120095",
      "name": "Maradhoo Island",
      "slug": "maradhoo-island",
      "latitude": "0.5500",
      "longitude": "73.4500"
    },
    {
      "id": "120096",
      "name": "Feydhoo Island",
      "slug": "feydhoo-island",
      "latitude": "0.5167",
      "longitude": "73.4167"
    },
    {
      "id": "120097",
      "name": "Hulhumeedhoo Island",
      "slug": "hulhumeedhoo-island",
      "latitude": "0.4833",
      "longitude": "73.3833"
    }
  ],
  "messages": [],
  "stdout": "id\tname\tslug\tlatitude\tlongitude\n60001\tMalé\tmale\tNULL\tNULL\n60002\tMaafushi\tmaafushi\tNULL\tNULL\n60003\tThulusdhoo\tthulusdhoo\tNULL\tNULL\n60004\tDhiffushi\tdhiffushi\tNULL\tNULL\n60005\tRasdhoo\trasdhoo\tNULL\tNULL\n60006\tThoddoo\tthoddoo\tNULL\tNULL\n60007\tUkulhas\tukulhas\tNULL\tNULL\n60008\tDhigurah\tdhigurah\tNULL\tNULL\n60009\tVeligandu\tveligandu\tNULL\tNULL\n60010\tFulidhoo\tfulidhoo\tNULL\tNULL\n60011\tFelidhoo\tfelidhoo\tNULL\tNULL\n60012\tNaifaru\tnaifaru\tNULL\tNULL\n60013\tHinnavaru\thinnavaru\tNULL\tNULL\n60014\tDharavandhoo\tdharavandhoo\tNULL\tNULL\n60015\tGuraidhoo\tguraidhoo\tNULL\tNULL\n60016\tKudahuvadhoo\tkudahuvadhoo\tNULL\tNULL\n60017\tFodhdhoo\tfodhdhoo\tNULL\tNULL\n60018\tMuli\tmuli\tNULL\tNULL\n60019\tKolhufushi\tkolhufushi\tNULL\tNULL\n60020\tGan\tgan\tNULL\tNULL\n60021\tFeidhoo\tfeidhoo\tNULL\tNULL\n60022\tMaradhoo\tmaradhoo\tNULL\tNULL\n60023\tHithadhoo\thithadhoo\tNULL\tNULL\n60024\tVeymandoo\tveymandoo\tNULL\tNULL\n60025\tMadifushi\tmadifushi\tNULL\tNULL\n60026\tInguraidhoo\tinguraidhoo\tNULL\tNULL\n60027\tAlifushi\talifushi\tNULL\tNULL\n60028\tUngoofaaru\tungoofaaru\tNULL\tNULL\n90001\tFuvahmulah Island\tfuvahmulah-island\t0.2833\t73.4167\n90002\tHulhumalé\thulhumale\t4.1667\t73.5167\n90004\tMaamigili\tmaamigili\t3.8667\t72.7833\n90005\tKandooma Thila\tkandooma-thila\t4.0833\t73.4667\n90006\tBanana Reef\tbanana-reef\t4.1667\t73.5167\n90007\tMaaya Thila\tmaaya-thila\t3.8667\t72.7833\n90008\tHP Reef\thp-reef\t5.2167\t73.0167\n90009\tFotteyo Kandu\tfotteyo-kandu\t5.0833\t72.9167\n90010\tVeligandu Reef\tveligandu-reef\t3.9167\t72.8333\n90011\tDhigurah House Reef\tdhigurah-house-reef\t3.8833\t72.8667\n90012\tFulidhoo Kandu\tfulidhoo-kandu\t3.8167\t72.8167\n90013\tFelidhoo Kandu\tfelidhoo-kandu\t3.7833\t72.8333\n90014\tRasdhoo Madivaru\trasdhoo-madivaru\t4.2667\t73.4167\n90015\tThoddoo House Reef\tthoddoo-house-reef\t4.3333\t73.5167\n90016\tUkulhas House Reef\tukulhas-house-reef\t4.2667\t73.3667\n90017\tNaifaru Kandu\tnaifaru-kandu\t5.3333\t73.1667\n120001\tFuvahmulah Tiger Shark\tfuvahmulah-tiger-shark\t0.2667\t73.3833\n120002\tBaarah Island\tbaarah-island\t6.6667\t73.2333\n120003\tDhiddhoo Island\tdhiddhoo-island\t6.6000\t73.2667\n120004\tHoarafushi Island\thoarafushi-island\t6.5667\t73.3333\n120005\tIhavandhoo Island\tihavandhoo-island\t6.5333\t73.3667\n120006\tKelaa Island\tkelaa-island\t6.7000\t73.2500\n120007\tMaarandhoo Island\tmaarandhoo-island\t6.6333\t73.2000\n120008\tMulhadhoo Island\tmulhadhoo-island\t6.7333\t73.2667\n120009\tMuraidhoo Island\tmuraidhoo-island\t6.7667\t73.2333\n120010\tThakandhoo Island\tthakandhoo-island\t6.5000\t73.4000\n120011\tThuraakunu Island\tthuraakunu-island\t6.4667\t73.3833\n120012\tUligamu Island\tuligamu-island\t6.7500\t73.2167\n120013\tUtheemu Island\tutheemu-island\t6.5833\t73.3167\n120014\tVashafaru Island\tvashafaru-island\t6.6500\t73.1833\n120015\tFilladhoo Island\tfilladhoo-island\t6.7833\t73.2000\n120016\tFiney Island\tfiney-island\t6.9500\t73.3667\n120017\tHirimaradhoo Island\thirimaradhoo-island\t6.9000\t73.4500\n120018\tKumundhoo Island\tkumundhoo-island\t6.9333\t73.3833\n120019\tKurinbi Island\tkurinbi-island\t6.9667\t73.3500\n120020\tMakunudhoo Island\tmakunudhoo-island\t6.8667\t73.4167\n120021\tNaivaadhoo Island\tnaivaadhoo-island\t6.9833\t73.3667\n120022\tNellaidhoo Island\tnellaidhoo-island\t6.8333\t73.4833\n120023\tNeykurendhoo Island\tneykurendhoo-island\t6.8000\t73.5000\n120024\tNolhivaramu Island\tnolhivaramu-island\t6.8500\t73.4333\n120025\tNolhivaranfaru Island\tnolhivaranfaru-island\t6.8167\t73.4667\n120026\tVaikaradhoo Island\tvaikaradhoo-island\t6.9167\t73.4000\n120027\tFunadhoo Island\tfunadhoo-island\t6.0333\t72.9167\n120028\tLhaimagu Island\tlhaimagu-island\t6.0667\t72.8833\n120029\tMilandhoo Island\tmilandhoo-island\t6.0000\t72.9500\n120030\tNoomaraa Island\tnoomaraa-island\t5.9667\t72.9667\n120031\tLhosfushi Island\tlhosfushi-island\t5.6667\t73.3667\n120032\tMeedhoo Island\tmeedhoo-island-noonu\t5.6333\t73.3333\n120033\tVelidhoo Island\tvelidhoo-island-noonu\t5.6000\t73.3000\n120034\tAlifushi Island\talifushi-island\t5.3333\t73.1667\n120035\tDhuvaafaru Island\tdhuvaafaru-island\t5.3667\t73.1333\n120036\tInnamaa Island\tinnamaa-island\t5.3000\t73.2000\n120037\tUngoofaaru Island\tungoofaaru-island\t5.2667\t73.2333\n120038\tDhonfanu Island\tdhonfanu-island\t5.1667\t73.0333\n120039\tEydhafushi Island\teydhafushi-island\t5.1333\t73.0667\n120040\tFulhadhoo Island\tfulhadhoo-island\t5.0333\t73.1667\n120041\tGodhdhoo Island\tgodhdhoo-island\t5.1000\t73.0000\n120042\tKendhoo Island\tkendhoo-island\t5.0000\t73.2000\n120043\tVillingili Island\tvillingili-island-baa\t5.1500\t73.0500\n120044\tHinnavaru Island\thinnavaru-island\t5.3667\t73.3667\n120045\tKurendhoo Island\tkurendhoo-island\t5.3333\t73.4000\n120046\tNaifaru Island\tnaifaru-island\t5.3667\t73.3667\n120047\tOlhuvelifushi Island\tolhuvelifushi-island\t5.2667\t73.4333\n120048\tDhiffushi Island\tdhiffushi-island\t4.2667\t73.5167\n120049\tGaafaru Island\tgaafaru-island\t4.2833\t73.5333\n120050\tGulhi Island\tgulhi-island\t4.2500\t73.5000\n120051\tGuraidhoo Island\tguraidhoo-island\t4.2333\t73.4833\n120052\tHimmafushi Island\thimmafushi-island\t4.2167\t73.5167\n120053\tHuraa Island\thuraa-island\t4.2000\t73.5333\n120054\tKaashidhoo Island\tkaashidhoo-island\t4.2833\t73.4667\n120055\tBodufolhudhoo Island\tbodufolhudhoo-island\t4.3333\t73.5333\n120056\tFeridhoo Island\tferidhoo-island\t4.3667\t73.5500\n120057\tHimandhoo Island\thimandhoo-island\t4.3500\t73.5667\n120058\tMaalhos Island\tmaalhos-island\t4.3333\t73.5833\n120059\tMathiveri Island\tmathiveri-island\t4.3167\t73.5500\n120060\tThoddoo Island\tthoddoo-island\t4.3833\t73.5667\n120061\tDhigurah Island\tdhigurah-island\t4.2167\t73.5167\n120062\tFelidhoo Island\tfelidhoo-island-vaavu\t3.8833\t72.9333\n120063\tFulidhoo Island\tfulidhoo-island\t3.8667\t72.9500\n120064\tKeyodhoo Island\tkeyodhoo-island\t3.8500\t72.9667\n120065\tRakeedhoo Island\trakeedhoo-island\t3.8333\t72.9833\n120066\tThinadhoo Island\tthinadhoo-island-vaavu\t3.8167\t73.0000\n120067\tDhiggaru Island\tdhiggaru-island\t3.7333\t72.8333\n120068\tKolhufushi Island\tkolhufushi-island\t3.7000\t72.8667\n120069\tMaduvvaree Island\tmaduvvaree-island\t3.6667\t72.9000\n120070\tMulah Island\tmulah-island\t3.6333\t72.9333\n120071\tMuli Island\tmuli-island\t3.6000\t72.9667\n120072\tNaalaafushi Island\tnaalaafushi-island\t3.5667\t73.0000\n120073\tRaimmandhoo Island\traimmandhoo-island\t3.5333\t73.0333\n120074\tVeyvah Island\tveyvah-island\t3.5000\t73.0667\n120075\tBileddhoo Island\tbileddhoo-island\t3.4667\t72.8000\n120076\tDharanboodhoo Island\tdharanboodhoo-island\t3.4333\t72.8333\n120077\tFeeali Island\tfeeali-island\t3.4000\t72.8667\n120078\tMagoodhoo Island\tmagoodhoo-island\t3.3667\t72.9000\n120079\tNilandhoo Island\tnilandhoo-island-faafu\t3.3333\t72.9333\n120080\tBandidhoo Island\tbandidhoo-island\t3.3000\t72.8000\n120081\tHulhudheli Island\thulhudheli-island\t3.2667\t72.8333\n120082\tKudahuvadhoo Island\tkudahuvadhoo-island\t3.2333\t72.8667\n120083\tMaaenboodhoo Island\tmaaenboodhoo-island\t3.2000\t72.9000\n120084\tMeedhoo Island\tmeedhoo-island-dhaalu\t3.1667\t72.9333\n120085\tRinbudhoo Island\trinbudhoo-island\t3.1333\t72.9667\n120086\tBurunee Island\tburunee-island\t3.1000\t72.8000\n120087\tDhiyamigili Island\tdhiyamigili-island\t3.0667\t72.8333\n120088\tGemendhoo Island\tgemendhoo-island\t3.0333\t72.8667\n120089\tVeymandoo Island\tveymandoo-island\t2.9667\t72.9333\n120090\tIsdhoo Island\tisdhoo-island\t0.6000\t73.1333\n120091\tKalaidhoo Island\tkalaidhoo-island\t0.5667\t73.1000\n120092\tKadhoo Island\tkadhoo-island\t0.5333\t73.0667\n120093\tMaavah Island\tmaavah-island\t0.5000\t73.0333\n120094\tHithadhoo Island\thithadhoo-island\t0.5833\t73.4833\n120095\tMaradhoo Island\tmaradhoo-island\t0.5500\t73.4500\n120096\tFeydhoo Island\tfeydhoo-island\t0.5167\t73.4167\n120097\tHulhumeedhoo Island\thulhumeedhoo-island\t0.4833\t73.3833\n",
  "stderr": "",
  "execution_time_ms": 60
}