{
  "query": "UPDATE island_guides SET latitude = '5.4667', longitude = '73.0667' WHERE name = 'Himandhoo';\nUPDATE island_guides SET latitude = '5.9167', longitude = '73.0' WHERE name = 'Hinnavaru';\nUPDATE island_guides SET latitude = '5.3333', longitude = '73.4667' WHERE name = 'Hirimaradhoo';\nUPDATE island_guides SET latitude = '2.0833', longitude = '73.5' WHERE name = 'Hulhudheli';\nUPDATE island_guides SET latitude = '-0.5909', longitude = '73.2253' WHERE name = 'Hulhumeedhoo';\nUPDATE island_guides SET latitude = '5.5496', longitude = '73.0445' WHERE name = 'Innamaa';\nUPDATE island_guides SET latitude = '1.8600', longitude = '73.5216' WHERE name = 'Kadhoo';\nUPDATE island_guides SET latitude = '1.9667', longitude = '73.4' WHERE name = 'Kalaidhoo';\nUPDATE island_guides SET latitude = '4.3', longitude = '73.5' WHERE name = 'Kandooma Thila';\nUPDATE island_guides SET latitude = '6.3333', longitude = '72.8333' WHERE name = 'Kelaa';\nUPDATE island_guides SET latitude = '6.9167', longitude = '72.9667' WHERE name = 'Kendhoo';\nUPDATE island_guides SET latitude = '5.0333', longitude = '72.9' WHERE name = 'Kumundhoo';\nUPDATE island_guides SET latitude = '5.05', longitude = '72.9' WHERE name = 'Kurinbi';\nUPDATE island_guides SET latitude = '6.4167', longitude = '72.9167' WHERE name = 'Lhaimagu';\nUPDATE island_guides SET latitude = '6.6667', longitude = '73.0' WHERE name = 'Lhosfushi';\nUPDATE island_guides SET latitude = '1.9667', longitude = '73.4' WHERE name = 'Maaenboodhoo';\nUPDATE island_guides SET latitude = '1.9667', longitude = '73.4' WHERE name = 'Maarandhoo';\nUPDATE island_guides SET latitude = '1.9667', longitude = '73.4' WHERE name = 'Maavah';\nUPDATE island_guides SET latitude = '2.2', longitude = '73.0667' WHERE name = 'Madifushi';\nUPDATE island_guides SET latitude = '2.0833', longitude = '73.5' WHERE name = 'Maduvvaree';\nUPDATE island_guides SET latitude = '2.0833', longitude = '73.5' WHERE name = 'Magoodhoo';\nUPDATE island_guides SET latitude = '5.3333', longitude = '73.4667' WHERE name = 'Mahchangoali';\nUPDATE island_guides SET latitude = '2.9667', longitude = '73.4' WHERE name = 'Mahibadhoo';\nUPDATE island_guides SET latitude = '6.9167', longitude = '72.9667' WHERE name = 'Maidhoo';\nUPDATE island_guides SET latitude = '4.1667', longitude = '73.5' WHERE name = 'Malé';\nUPDATE island_guides SET latitude = '0.6', longitude = '73.1667' WHERE name = 'Meedhoo';\nUPDATE island_guides SET latitude = '2.8', longitude = '73.4' WHERE name = 'Meemu';\nUPDATE island_guides SET latitude = '6.9167', longitude = '72.9667' WHERE name = 'Milandhoo';\nUPDATE island_guides SET latitude = '4.3', longitude = '73.5' WHERE name = 'Minnow';\nUPDATE island_guides SET latitude = '4.3', longitude = '73.5' WHERE name = 'Moofushi';\nUPDATE island_guides SET latitude = '5.3333', longitude = '73.4667' WHERE name = 'Muddhoo';\nUPDATE island_guides SET latitude = '0.6', longitude = '73.1667' WHERE name = 'Mulah';\nUPDATE island_guides SET latitude = '1.9667', longitude = '73.4' WHERE name = 'Mundoo';\nUPDATE island_guides SET latitude = '5.3333', longitude = '73.1667' WHERE name = 'Naifaru';\nUPDATE island_guides SET latitude = '2.0833', longitude = '73.5' WHERE name = 'Nellaidhoo';\nUPDATE island_guides SET latitude = '2.5', longitude = '73.4' WHERE name = 'Nilandhoo';\nUPDATE island_guides SET latitude = '2.0833', longitude = '73.5' WHERE name = 'Omadhoo';\nUPDATE island_guides SET latitude = '6.1667', longitude = '73.0' WHERE name = 'Raa';\nUPDATE island_guides SET latitude = '4.3', longitude = '73.5' WHERE name = 'Randheli';\nUPDATE island_guides SET latitude = '5.7333', longitude = '72.9667' WHERE name = 'Rasdhoo';\nUPDATE island_guides SET latitude = '5.2', longitude = '73.0667' WHERE name = 'Thoddoo';\nUPDATE island_guides SET latitude = '0.5', longitude = '72.95' WHERE name = 'Thinadhoo';\nUPDATE island_guides SET latitude = '5.2', longitude = '73.0667' WHERE name = 'Thulusdhoo'",
  "command": "mysql --batch --raw --column-names --default-character-set=utf8mb4 --host gateway03.us-east-1.prod.aws.tidbcloud.com --port 4000 --user 3FFv3TtDUeNbYDM.root --database JUCCYykxYWxAcNny3wop55 --execute UPDATE island_guides SET latitude = '5.4667', longitude = '73.0667' WHERE name = 'Himandhoo';\nUPDATE island_guides SET latitude = '5.9167', longitude = '73.0' WHERE name = 'Hinnavaru';\nUPDATE island_guides SET latitude = '5.3333', longitude = '73.4667' WHERE name = 'Hirimaradhoo';\nUPDATE island_guides SET latitude = '2.0833', longitude = '73.5' WHERE name = 'Hulhudheli';\nUPDATE island_guides SET latitude = '-0.5909', longitude = '73.2253' WHERE name = 'Hulhumeedhoo';\nUPDATE island_guides SET latitude = '5.5496', longitude = '73.0445' WHERE name = 'Innamaa';\nUPDATE island_guides SET latitude = '1.8600', longitude = '73.5216' WHERE name = 'Kadhoo';\nUPDATE island_guides SET latitude = '1.9667', longitude = '73.4' WHERE name = 'Kalaidhoo';\nUPDATE island_guides SET latitude = '4.3', longitude = '73.5' WHERE name = 'Kandooma Thila';\nUPDATE island_guides SET latitude = '6.3333', longitude = '72.8333' WHERE name = 'Kelaa';\nUPDATE island_guides SET latitude = '6.9167', longitude = '72.9667' WHERE name = 'Kendhoo';\nUPDATE island_guides SET latitude = '5.0333', longitude = '72.9' WHERE name = 'Kumundhoo';\nUPDATE island_guides SET latitude = '5.05', longitude = '72.9' WHERE name = 'Kurinbi';\nUPDATE island_guides SET latitude = '6.4167', longitude = '72.9167' WHERE name = 'Lhaimagu';\nUPDATE island_guides SET latitude = '6.6667', longitude = '73.0' WHERE name = 'Lhosfushi';\nUPDATE island_guides SET latitude = '1.9667', longitude = '73.4' WHERE name = 'Maaenboodhoo';\nUPDATE island_guides SET latitude = '1.9667', longitude = '73.4' WHERE name = 'Maarandhoo';\nUPDATE island_guides SET latitude = '1.9667', longitude = '73.4' WHERE name = 'Maavah';\nUPDATE island_guides SET latitude = '2.2', longitude = '73.0667' WHERE name = 'Madifushi';\nUPDATE island_guides SET latitude = '2.0833', longitude = '73.5' WHERE name = 'Maduvvaree';\nUPDATE island_guides SET latitude = '2.0833', longitude = '73.5' WHERE name = 'Magoodhoo';\nUPDATE island_guides SET latitude = '5.3333', longitude = '73.4667' WHERE name = 'Mahchangoali';\nUPDATE island_guides SET latitude = '2.9667', longitude = '73.4' WHERE name = 'Mahibadhoo';\nUPDATE island_guides SET latitude = '6.9167', longitude = '72.9667' WHERE name = 'Maidhoo';\nUPDATE island_guides SET latitude = '4.1667', longitude = '73.5' WHERE name = 'Malé';\nUPDATE island_guides SET latitude = '0.6', longitude = '73.1667' WHERE name = 'Meedhoo';\nUPDATE island_guides SET latitude = '2.8', longitude = '73.4' WHERE name = 'Meemu';\nUPDATE island_guides SET latitude = '6.9167', longitude = '72.9667' WHERE name = 'Milandhoo';\nUPDATE island_guides SET latitude = '4.3', longitude = '73.5' WHERE name = 'Minnow';\nUPDATE island_guides SET latitude = '4.3', longitude = '73.5' WHERE name = 'Moofushi';\nUPDATE island_guides SET latitude = '5.3333', longitude = '73.4667' WHERE name = 'Muddhoo';\nUPDATE island_guides SET latitude = '0.6', longitude = '73.1667' WHERE name = 'Mulah';\nUPDATE island_guides SET latitude = '1.9667', longitude = '73.4' WHERE name = 'Mundoo';\nUPDATE island_guides SET latitude = '5.3333', longitude = '73.1667' WHERE name = 'Naifaru';\nUPDATE island_guides SET latitude = '2.0833', longitude = '73.5' WHERE name = 'Nellaidhoo';\nUPDATE island_guides SET latitude = '2.5', longitude = '73.4' WHERE name = 'Nilandhoo';\nUPDATE island_guides SET latitude = '2.0833', longitude = '73.5' WHERE name = 'Omadhoo';\nUPDATE island_guides SET latitude = '6.1667', longitude = '73.0' WHERE name = 'Raa';\nUPDATE island_guides SET latitude = '4.3', longitude = '73.5' WHERE name = 'Randheli';\nUPDATE island_guides SET latitude = '5.7333', longitude = '72.9667' WHERE name = 'Rasdhoo';\nUPDATE island_guides SET latitude = '5.2', longitude = '73.0667' WHERE name = 'Thoddoo';\nUPDATE island_guides SET latitude = '0.5', longitude = '72.95' WHERE name = 'Thinadhoo';\nUPDATE island_guides SET latitude = '5.2', longitude = '73.0667' WHERE name = 'Thulusdhoo'",
  "rows": [],
  "messages": [],
  "stdout": "",
  "stderr": "",
  "execution_time_ms": 2537
}